{
  "type": "FeatureCollection",
  "features": [
    {"type":"Feature","properties":{"descriptio":"<DIV>920 W Riverside Dr.</DIV> <DIV>Austin, TX 78704<BR><IMG src=\"http://cbk0.go","name":"Auditorium Shores"},"geometry":{"type":"Point","coordinates":[-97.755943,30.26424]}},{"type":"Feature","properties":{"descriptio":"<DIV>5909 Crystalbrook Dr</DIV> <DIV>Austin, TX 78724<BR><IMG src=\"http://cbk0.g","name":"Davis White Northeast District Park"},"geometry":{"type":"Point","coordinates":[-97.652878,30.302725]}},{"type":"Feature","properties":{"descriptio":"<DIV>1600 City Park Rd</DIV> <DIV>Austin, TX 78730<BR><IMG src=\"http://cbk0.goog","name":"Emma Long Metropolitan Park"},"geometry":{"type":"Point","coordinates":[-97.838501,30.335217]}},{"type":"Feature","properties":{"descriptio":"<DIV>7001 Onion Creek Dr</DIV> <DIV>Austin, TX 78744<BR><IMG src=\"http://cbk0.go","name":"Onion Creek District Park"},"geometry":{"type":"Point","coordinates":[-97.743599,30.171667]}},{"type":"Feature","properties":{"descriptio":"<div dir=\"ltr\">2600-2799 Lamar Blvd. <br>Austin, TX</div>","name":"Shoal Creek Greenbelt"},"geometry":{"type":"Point","coordinates":[-97.748955,30.295168]}},{"type":"Feature","properties":{"descriptio":"<DIV>1317 W 10th St</DIV> <DIV>Austin, TX 78703<BR><IMG src=\"http://cbk0.google.","name":"West Austin Park"},"geometry":{"type":"Point","coordinates":[-97.757111,30.277468]}},{"type":"Feature","properties":{"descriptio":"<DIV>12138 N Lamar Blvd</DIV> <DIV>Austin, TX 78753<BR><IMG src=\"http://cbk0.goo","name":"Walnut Creek District Park"},"geometry":{"type":"Point","coordinates":[-97.679832,30.398497]}},{"type":"Feature","properties":{"descriptio":"<DIV>2100 Barton Springs Rd</DIV> <DIV>Austin, TX 78704<BR><IMG src=\"http://cbk0","name":"Zilker Park"},"geometry":{"type":"Point","coordinates":[-97.769638,30.263988]}},{"type":"Feature","properties":{"descriptio":"<DIV>3401 Redbud Trail Unit Cr.</DIV> <DIV>Austin, TX<BR><IMG src=\"http://cbk0.g","name":"Red Bud Isle"},"geometry":{"type":"Point","coordinates":[-97.801483,30.295906]}},{"type":"Feature","properties":{"descriptio":"6916 Great Northern Blvd.<br>Austin, TX 78757<br><a href=\"https://maps.google.co","name":"Far West"},"geometry":{"type":"Point","coordinates":[-97.74794,30.350876]}},{"type":"Feature","properties":{"descriptio":"907 W Slaughter Ln<br>Austin, TX 78748<br><a href=\"https://maps.google.com/maps/","name":"Mary Moore Searight Metro Park"},"geometry":{"type":"Point","coordinates":[-97.806038,30.173923]}},{"type":"Feature","properties":{"descriptio":"1009 Edgecliff Terrace<br>Austin, TX 78704<br><a href=\"https://maps.google.com/m","name":"Norwood Tract at Town Lake Metro Park"},"geometry":{"type":"Point","coordinates":[-97.737854,30.249901]}}]
}